縣市,鄉鎮市區,門市名稱,地址,緯度,經度
南投縣,南投市,南投,南投縣南投市復興路137號,23.905816,120.687344
南投縣,南投市,南投2,南投縣南投市彰南路二段26號,23.908719,120.684949
南投縣,名間鄉,名間,南投縣名間鄉南雅街100號,23.837646,120.702245
南投縣,埔里鎮,埔里,南投縣埔里鎮南盛街120號,23.962934,120.966794
南投縣,埔里鎮,埔里2,南投縣埔里鎮中正路463號,23.966464,120.965919
南投縣,水里鄉,水里,南投縣水里鄉民生路433號,23.817852,120.853592
南投縣,竹山鎮,竹山,南投縣竹山鎮集山路三段959號,23.755927,120.681936
南投縣,草屯鎮,草屯,南投縣草屯鎮太平路二段262號,23.976955,120.684056
台中市,中區,台中,台中市中區繼光街88號,24.138787,120.682728
台中市,中區,中站,台中市中區臺灣大道一段25號,24.137983,120.684353
台中市,北區,三民,台中市北區三民路三段92-3號,24.148933,120.683887
台中市,北區,漢口,台中市北區漢口路三段184號,24.166889,120.672333
台中市,北區,學士,台中市北區健行路449-1號,24.159005,120.679736
台中市,北屯區,崇德,台中市北屯區崇德路二段65號,24.170744,120.685158
台中市,北屯區,水湳,台中市北屯區中清路二段216號,24.177467,120.669452
台中市,北屯區,昌平,台中市北屯區昌平路一段157號,24.176468,120.690041
台中市,北屯區,東山,台中市北屯區東山路一段250號,24.175548,120.718081
台中市,北屯區,崇德2,台中市北屯區崇德二路一段97號,24.176133,120.696248
台中市,南區,美南,台中市南區美村南路78號,24.116191,120.666933
台中市,南區,復中,台中市南區台中路64號,24.133903,120.683078
台中市,南區,興大,台中市南區學府路65號,24.124724,120.674986
台中市,南區,忠明,台中市南區忠明南路797號,24.123074,120.661106
台中市,南屯區,黎明,台中市南屯區黎明路二段417號,24.151459,120.635026
台中市,南屯區,南屯,台中市南屯區南屯路二段391號,24.13814,120.643768
台中市,南屯區,黎新,台中市南屯區黎明路一段1010號,24.138321,120.637669
台中市,南屯區,新大墩,台中市南屯區大墩路556號,24.149251,120.650111
台中市,南屯區,嶺東,台中市南屯區永春南路52號,24.138459,120.610508
台中市,南屯區,河南,台中市南屯區河南路四段502號,24.147028,120.638131
台中市,南屯區,楓樹,台中市南屯區黎明路一段153號,24.115739,120.626528
台中市,后里區,后里,台中市后里區甲后路一段447號,24.314542,120.689207
台中市,大甲區,大甲,台中市大甲區蔣公路7號,24.344557,120.62607
台中市,大肚區,大肚,台中市大肚區沙田路二段753號,24.153764,120.54448
台中市,大里區,大里,台中市大里區中興路二段470號,24.109782,120.689971
台中市,大里區,仁化,台中市大里區仁化路563號,24.096304,120.699003
台中市,大里區,新塗城,台中市大里區成功路536號,24.090991,120.7034
台中市,大雅區,大雅,台中市大雅區中清東路197號,24.224317,120.647299
台中市,太平區,太平,台中市太平區太平路472-1號,24.124891,120.715005
台中市,太平區,太平二,台中市太平區中興路121號,24.126674,120.714937
台中市,太平區,新平,台中市太平區中山路三段121號,24.148571,120.716385
台中市,太平區,勤益,台中市太平區中山路一段215巷1號,24.142938,120.732779
台中市,東勢區,東勢,台中市東勢區豐勢路264號,24.251852,120.830228
台中市,東區,精武,台中市東區精武東路105號,24.149498,120.709589
台中市,東區,復站,台中市東區復興路四段217號,24.136487,120.687468
台中市,梧棲區,梧棲,台中市梧棲區文化路二段202號,24.256495,120.531684
台中市,沙鹿區,沙鹿,台中市沙鹿區中山路246號,24.237919,120.561383
台中市,沙鹿區,沙田,台中市沙鹿區中正街55號,24.236395,120.559099
台中市,沙鹿區,靜宜,台中市沙鹿區台灣大道七段259號,24.226417,120.576182
台中市,清水區,清水,台中市清水區中山路126-7號,24.268497,120.575422
台中市,潭子區,潭子,台中市潭子區勝利路213號,24.212799,120.700553
台中市,烏日區,烏日,台中市烏日區興祥街46號,24.108355,120.637944
台中市,西區,精誠,台中市西區精誠路154號,24.152449,120.655076
台中市,西區,公益,台中市西區公益路175號,24.150708,120.661433
台中市,西區,美村,台中市西區美村路一段686號,24.135254,120.661551
台中市,西區,美村二,台中市西區美村路一段22號,24.154665,120.661733
台中市,西屯區,逢甲,台中市西屯區福星路427號,24.179148,120.645236
台中市,西屯區,西屯,台中市西屯區西屯路二段16-1號,24.178821,120.640722
台中市,西屯區,永福,台中市西屯區永福路137號,24.184608,120.620738
台中市,西屯區,文華,台中市西屯區西屯路二段269-50號,24.174566,120.644268
台中市,西屯區,特易發,台中市西屯區青海路二段207-18號B1,24.170472,120.644874
台中市,西屯區,青海,台中市西屯區青海路一段174號,24.165615,120.652896
台中市,西屯區,精誠二,台中市西屯區精誠路18號,24.157087,120.656962
台中市,西屯區,中工,台中市西屯區中工三路162號,24.177316,120.61801
台中市,西屯區,福星,台中市西屯區福星北路5號,24.182639,120.644728
台中市,豐原區,豐原,台中市豐原區中正路147號,24.251579,120.719794
台中市,豐原區,向陽,台中市豐原區向陽路269號,24.251391,120.728155
台中市,豐原區,豐功,台中市豐原區成功路148號,24.244604,120.710034
台中市,霧峰區,新霧峰,台中市霧峰區中正路841號,24.064481,120.698668
台中市,龍井區,東海,台中市龍井區新興路2號,24.18144,120.592488
台北市,中山區,大直,台北市中山區北安路520-4號,25.079693,121.546254
台北市,中山區,農安,台北市中山區雙城街14號,25.064805,121.52441
台北市,中山區,松江,台北市中山區松江路287號,25.060441,121.533369
台北市,中山區,雙連,台北市中山區民生西路54號,25.057627,121.521145
台北市,中山區,復北,台北市中山區復興北路60號,25.05022,121.543869
台北市,中山區,龍江,台北市中山區龍江路283號,25.060338,121.540837
台北市,中山區,實踐,台北市中山區大直街43號,25.082668,121.546467
台北市,中山區,長春,台北市中山區長春路184號,25.054732,121.534723
台北市,中山區,伊通,台北市中山區南京東路二段178號,25.05182,121.535011
台北市,中山區,民捷,台北市中山區民權西路64號,25.062632,121.52008
台北市,中山區,林森,台北市中山區林森北路380號,25.058361,121.525387
台北市,中山區,新南京,台北市中山區南京東路二段50號,25.051855,121.52962
台北市,中山區,南京東,台北市中山區南京東路三段125號,25.052209,121.540039
台北市,中山區,林森北,台北市中山區林森北路131號,25.051017,121.525232
台北市,中山區,長安東,台北市中山區長安東路二段77號,25.04855,121.534314
台北市,中山區,大食代,台北市中山區樂群三路218號,25.082488,121.558094
台北市,中山區,錦州,台北市中山區錦州街448號,25.060026,121.543314
台北市,中山區,龍江二,台北市中山區龍江路356巷16號,25.065873,121.540222
台北市,中山區,南京西,台北市中山區南京西路3-2號,25.052599,121.521512
台北市,中正區,南陽,台北市中正區南陽街15號,25.044674,121.516148
台北市,中正區,新生,台北市中正區新生南路一段104號,25.039813,121.532554
台北市,中正區,羅二,台北市中正區羅斯福路四段58號,25.014839,121.53392
台北市,中正區,寧波,台北市中正區寧波西街46號,25.030828,121.517923
台北市,中正區,城中,台北市中正區重慶南路一段56號,25.044229,121.513089
台北市,中正區,館前,台北市中正區館前路18號,25.045403,121.514881
台北市,中正區,新古亭,台北市中正區南昌路二段70號,25.026656,121.521152
台北市,中正區,微風站,台北市中正區北平西路3號,25.047924,121.517081
台北市,信義區,忠五,台北市信義區忠孝東路五段494號,25.040789,121.578282
台北市,信義區,吳興,台北市信義區吳興街225號,25.027804,121.563095
台北市,信義區,松二,台北市信義區松山路564號,25.037309,121.578158
台北市,信義區,光南,台北市信義區光復南路445-1號,25.035396,121.55771
台北市,信義區,福德,台北市信義區福德街191號,25.038262,121.584206
台北市,信義區,五分埔,台北市信義區松山路111號,25.047693,121.578004
台北市,信義區,松壽,台北市信義區松壽路12號,25.035666,121.566075
台北市,信義區,和平三,台北市信義區和平東路三段433號,25.019159,121.55832
台北市,信義區,永吉,台北市信義區忠孝東路五段165巷1號,25.041475,121.568816
台北市,內湖區,內湖,台北市內湖區成功路四段46號,25.08216,121.592015
台北市,內湖區,東湖,台北市內湖區東湖路31號,25.06892,121.613458
台北市,內湖區,德明,台北市內湖區內湖路一段279號,25.082483,121.565829
台北市,內湖區,港墘,台北市內湖區內湖路一段737巷37號,25.079864,121.578872
台北市,內湖區,康樂,台北市內湖區康樂街116-4號,25.070853,121.619031
台北市,內湖區,三總,台北市內湖區成功路二段325號B1,25.071282,121.591046
台北市,北投區,石牌,台北市北投區石牌路二段76號,25.116626,121.516282
台北市,北投區,北投,台北市北投區光明路223號,25.136504,121.504176
台北市,北投區,磺港,台北市北投區磺港路8號,25.133249,121.502095
台北市,北投區,知行,台北市北投區知行路222號,25.120465,121.46718
台北市,北投區,北投二,台北市北投區中和街319號,25.140778,121.499845
台北市,北投區,自強,台北市北投區自強街88號,25.110617,121.514871
台北市,南港區,中坡,台北市南港區忠孝東路五段982號,25.044545,121.582515
台北市,南港區,昆陽,台北市南港區忠孝東路六段440號,25.050165,121.593771
台北市,士林區,士林,台北市士林區中正路285號,25.094771,121.524142
台北市,士林區,文林,台北市士林區文林路130號,25.088533,121.526568
台北市,士林區,天東,台北市士林區天母東路32號,25.117972,121.532403
台北市,士林區,延平,台北市士林區延平北路五段268號,25.085106,121.509883
台北市,士林區,延二,台北市士林區延平北路六段2號,25.086983,121.509304
台北市,士林區,士捷,台北市士林區中正路243號,25.095122,121.525805
台北市,士林區,德行,台北市士林區德行東路224號,25.109118,121.532631
台北市,士林區,士東,台北市士林區士東路134號,25.112184,121.530503
台北市,士林區,天北,台北市士林區天母北路6號,25.119084,121.526169
台北市,士林區,德行西,台北市士林區德行西路78號,25.104531,121.521935
台北市,士林區,劍潭,台北市士林區大東路11之7號,25.086746,121.525286
台北市,士林區,劍潭2,台北市士林區劍潭路15號,25.08416,121.522878
台北市,士林區,德行東,台北市士林區德行東路110號,25.107728,121.528709
台北市,大同區,酒泉,台北市大同區酒泉街70號,25.071924,121.51526
台北市,大同區,京站,台北市大同區市民大道一段209號1樓,25.048786,121.518569
台北市,大同區,南西二,台北市大同區南京西路42號,25.052704,121.519418
台北市,大同區,寧夏,台北市大同區寧夏路9號,25.05454,121.514984
台北市,大同區,延三,台北市大同區延平北路三段33號,25.064772,121.51123
台北市,大同區,民生西,台北市大同區民生西路231號,25.057175,121.515756
台北市,大安區,南山,台北市大安區通化街37號,25.030981,121.55438
台北市,大安區,統領,台北市大安區忠孝東路四段209號,25.041666,121.552291
台北市,大安區,崇光,台北市大安區忠孝東路四段15號,25.04194,121.544403
台北市,大安區,師大,台北市大安區師大路43號,25.024542,121.528638
台北市,大安區,科技,台北市大安區復興南路二段205號,25.026198,121.543711
台北市,大安區,和平,台北市大安區和平東路二段55號,25.025798,121.538519
台北市,大安區,信義三,台北市大安區信義路四段22號,25.033163,121.544421
台北市,大安區,龍泉,台北市大安區師大路125號,25.021916,121.528288
台北市,大安區,通化,台北市大安區信義路四段296號,25.032972,121.554485
台北市,大安區,永信,台北市大安區永康街2號,25.033199,121.529762
台北市,大安區,臨江,台北市大安區光復南路704號,25.029534,121.557216
台北市,大安區,安居,台北市大安區安居街27號,25.020642,121.554644
台北市,大安區,和平東,台北市大安區和平東路一段29號,25.027269,121.523285
台北市,大安區,臥龍,台北市大安區和平東路二段365號,25.024944,121.546585
台北市,大安區,忠孝東,台北市大安區忠孝東路四段339號,25.041661,121.557187
台北市,文山區,木柵,台北市文山區興隆路三段53號,25.000333,121.55601
台北市,文山區,政大,台北市文山區指南路二段123號,24.987703,121.575646
台北市,文山區,木柵3,台北市文山區木柵路三段59號,24.988661,121.566462
台北市,文山區,景美2,台北市文山區景興路195號,24.992194,121.544175
台北市,文山區,木新,台北市文山區木新路三段119號,24.981883,121.562186
台北市,文山區,世新,台北市文山區木柵路一段167號,24.987733,121.550712
台北市,松山區,復興,台北市松山區南京東路三段259號,25.051947,121.54489
台北市,松山區,延吉,台北市松山區延吉街7號,25.047664,121.55351
台北市,松山區,南二,台北市松山區南京東路五段64號,25.051296,121.560618
台北市,松山區,民權,台北市松山區民權東路三段136號,25.061853,121.546414
台北市,松山區,民環,台北市松山區民生東路五段188號,25.058671,121.564047
台北市,松山區,松山,台北市松山區八德路四段725號,25.050071,121.577145
台北市,松山區,民生,台北市松山區民生東路四段60號,25.057794,121.551796
台北市,松山區,台安,台北市松山區八德路二段406號,25.048051,121.546785
台北市,松山區,東興,台北市松山區南京東路5段301號,25.051578,121.566422
台北市,松山區,南寧,台北市松山區南京東路四段131號,25.051834,121.555011
台北市,松山區,總公司,台北市松山區八德路四段760號11樓,25.05,121.577
台北市,萬華區,武昌,台北市萬華區武昌街二段37號,25.044647,121.507708
台北市,萬華區,萬大,台北市萬華區萬大路497號,25.019875,121.49776
台北市,萬華區,西園,台北市萬華區西園路一段198號,25.036062,121.499211
台北市,萬華區,西門,台北市萬華區成都路15號,25.042608,121.507201
台北市,萬華區,武昌二,台北市萬華區武昌街二段81號,25.04448,121.503874
台北市,萬華區,漢中,台北市萬華區漢中街131號,25.041914,121.507535
台南市,下營區,下營,台南市下營區中山路一段66號,23.235072,120.262462
台南市,中西區,公園,台南市中西區公園路32號,22.994505,120.20563
台南市,中西區,友愛,台南市中西區國華街二段159號,22.991974,120.197088
台南市,中西區,南青,台南市中西區青年路148號,22.99174,120.209556
台南市,中西區,南民,台南市中西區民族路三段287號,22.999999,120.192389
台南市,中西區,赤崁,台南市中西區成功路211號,22.998429,120.204675
台南市,仁德區,仁德,台南市仁德區中正路三段12號,22.974052,120.252814
台南市,仁德區,嘉南,台南市仁德區二仁路一段165號,22.925142,120.222746
台南市,佳里區,佳里,台南市佳里區義民街219號,23.161319,120.175593
台南市,六甲區,六甲,台南市六甲區中山路2號,23.230753,120.351386
台南市,北區,開元,台南市北區開元路517號,23.011119,120.225451
台南市,南區,金華,台南市南區金華路二段87號,22.979534,120.191143
台南市,南區,南西門,台南市南區西門路一段665號,22.98648,120.197459
台南市,善化區,善化,台南市善化區中正路440號,23.130647,120.294001
台南市,學甲區,學甲,台南市學甲區濟生路142號,23.23295,120.180771
台南市,安南區,海佃,台南市安南區海佃路一段162號,23.024319,120.191772
台南市,安南區,本淵,台南市安南區安中路三段416號,23.049947,120.174094
台南市,安南區,和順,台南市安南區安和路四段502號,23.061016,120.218844
台南市,安南區,安中,台南市安南區安中路一段799號,23.044161,120.193242
台南市,安平區,永華,台南市安平區永華路二段815號,22.991147,120.168827
台南市,安平區,華平,台南市安平區慶平路289號,22.996782,120.177229
台南市,新化區,新化,台南市新化區信義路213-1號,23.03493,120.308712
台南市,新市區,新市,台南市新市區仁愛街318號,23.076996,120.29378
台南市,新營區,新營,台南市新營區延平路2號,23.302239,120.313562
台南市,東區,成功,台南市東區長榮路二段171號,22.991909,120.221395
台南市,東區,崇市,台南市東區崇德路367號,22.976743,120.223943
台南市,東區,光明,台南市東區光明街14號,22.999363,120.228167
台南市,東區,崇義,台南市東區崇德路646號,22.96995,120.227331
台南市,東區,崇義,台南市東區崇德路646號,22.96995,120.227331
台南市,東區,新北門,台南市東區北門路一段294號,22.995785,120.212133
台南市,東區,勝利,台南市東區勝利路157號,22.995544,120.217986
台南市,東區,大同,台南市東區大同路二段57號,22.979728,120.212952
台南市,東區,裕農,台南市東區裕農路77號,22.985928,120.224769
台南市,歸仁區,歸仁,台南市歸仁區中山路一段579號,22.966538,120.296084
台南市,永康區,永康,台南市永康區中正路988號,23.04073,120.23807
台南市,永康區,永康2,台南市永康區中華路201號,23.004759,120.235082
台南市,永康區,大灣,台南市永康區大灣路273號,23.006359,120.267389
台南市,永康區,崑山,台南市永康區大灣路915號,22.999205,120.254295
台南市,永康區,復華,台南市永康區復國一路317號,23.010328,120.246446
台南市,永康區,中山南,台南市永康區中山南路237號,23.015745,120.236151
台南市,永康區,中山北,台南市永康區中山北路31號,23.026939,120.259415
台南市,永康區,康華,台南市永康區中華路409號,23.009724,120.230806
台南市,白河區,白河,台南市白河區中山路32-2號,23.348307,120.414681
台南市,關廟區,關廟,台南市關廟區中山路一段640號,22.959879,120.327867
台南市,鹽水區,鹽水,台南市鹽水區朝琴路41號,23.321175,120.268599
台南市,麻豆區,麻豆,台南市麻豆區興中路96號,23.183584,120.250946
台東縣,台東市,台東,台東縣台東市正氣路171號,22.752313,121.151905
台東縣,台東市,東欣,台東縣台東市新生路195號,22.755537,121.144629
台東縣,成功鎮,台東二,台東縣成功鎮中華路63號,23.100283,121.377686
嘉義市,東區,嘉文,嘉義市東區文化路116號,23.477356,120.449968
嘉義市,東區,吳鳳南,嘉義市東區吳鳳南路300號,23.466071,120.454706
嘉義市,東區,嘉新,嘉義市東區新生路798號,23.495713,120.455199
嘉義市,西區,嘉樂,嘉義市西區博愛路二段461號,23.471311,120.43119
嘉義市,西區,嘉義2,嘉義市西區中山路379號,23.479743,120.447953
嘉義市,西區,興業,嘉義市西區仁愛路300號,23.471274,120.442742
嘉義市,西區,嘉民,嘉義市西區民族路455號,23.475877,120.448877
嘉義市,西區,興業西,嘉義市西區興業西路328號,23.46783,120.438244
嘉義縣,大林鎮,大林,嘉義縣大林鎮中正路429號,23.602814,120.454007
嘉義縣,太保市,太保,嘉義縣太保市中山路一段293號,23.498247,120.378228
嘉義縣,朴子市,朴子,嘉義縣朴子市八德路10號,23.463576,120.242725
嘉義縣,民雄鄉,民雄,嘉義縣民雄鄉昇平路1-1號,23.556509,120.429787
嘉義縣,民雄鄉,頭橋,嘉義縣民雄鄉建國路三段136號,23.522822,120.437268
嘉義縣,水上鄉,水上,嘉義縣水上鄉中興路388號,23.431051,120.400407
基隆市,七堵區,七堵,基隆市七堵區明德一路188號,25.097453,121.71303
基隆市,七堵區,百福,基隆市七堵區百三街83號,25.081939,121.694695
基隆市,中正區,海洋,基隆市中正區中正路802號,25.151189,121.771392
基隆市,仁愛區,基隆,基隆市仁愛區忠一路8號,25.13089,121.740526
基隆市,仁愛區,廟口,基隆市仁愛區愛四路76號,25.129554,121.744648
基隆市,仁愛區,仁三,基隆市仁愛區仁三路68號,25.128871,121.74267
基隆市,信義區,深溪,基隆市信義區深溪路192號,25.134944,121.782909
基隆市,安樂區,安樂,基隆市安樂區安樂路二段159號,25.120703,121.723488
基隆市,安樂區,大武崙,基隆市安樂區基金一路172-1號,25.140837,121.711277
基隆市,安樂區,安一,基隆市安樂區安一路115號,25.131727,121.734435
基隆市,安樂區,樂利,基隆市安樂區樂利三街100號,25.126446,121.714593
基隆市,暖暖區,暖暖,基隆市暖暖區暖暖街181號,25.099273,121.735901
宜蘭縣,宜蘭市,宜蘭,宜蘭縣宜蘭市中山路三段23號,24.755864,121.752103
宜蘭縣,宜蘭市,城東,宜蘭縣宜蘭市舊城東路28-3號,24.756845,121.756279
宜蘭縣,宜蘭市,神農,宜蘭縣宜蘭市神農路一段79號,24.748796,121.750023
宜蘭縣,宜蘭市,蘭城新,宜蘭縣宜蘭市民權路二段38巷6號,24.754852,121.750711
宜蘭縣,礁溪鄉,礁溪,宜蘭縣礁溪鄉德陽路12號,24.828235,121.772593
宜蘭縣,羅東鎮,羅東,宜蘭縣羅東鎮興東路6號,24.67581,121.767875
宜蘭縣,羅東鎮,羅民,宜蘭縣羅東鎮民生路30號,24.676989,121.769907
宜蘭縣,羅東鎮,羅站,宜蘭縣羅東鎮公正路66號,24.678178,121.772708
宜蘭縣,蘇澳鎮,蘇澳,宜蘭縣蘇澳鎮中山路一段78號,24.596431,121.836456
宜蘭縣,頭城鎮,頭城,宜蘭縣頭城鎮青雲路三段165號,24.857309,121.824972
屏東縣,內埔鄉,內埔,屏東縣內埔鄉廣濟路179號,22.612917,120.566504
屏東縣,屏東市,屏東,屏東縣屏東市民生路301-1號,22.670219,120.491215
屏東縣,屏東市,廣東,屏東縣屏東市廣東路615號,22.684549,120.497023
屏東縣,屏東市,屏師,屏東縣屏東市林森路23-3號,22.671157,120.498068
屏東縣,屏東市,屏東4,屏東縣屏東市中山路65號,22.676393,120.484734
屏東縣,屏東市,屏生,屏東縣屏東市民生路43號,22.662192,120.506952
屏東縣,恆春鎮,墾丁,屏東縣恆春鎮墾丁路212號,21.945672,120.797621
屏東縣,恆春鎮,恆春,屏東縣恆春鎮中正路75號,22.003218,120.744404
屏東縣,東港鎮,東港,屏東縣東港鎮中山路59號,22.466381,120.450616
屏東縣,枋寮鄉,枋寮,屏東縣枋寮鄉中山路156號,22.367353,120.594206
屏東縣,潮州鎮,潮州,屏東縣潮州鎮新生路54號,22.548652,120.538407
屏東縣,潮州鎮,潮州2,屏東縣潮州鎮延平路98號,22.553916,120.54049
屏東縣,萬丹鄉,萬丹,屏東縣萬丹鄉萬丹路一段176號,22.586075,120.489503
屏東縣,里港鄉,里港,屏東縣里港鄉中山路49號,22.77683,120.494445
屏東縣,高樹鄉,高樹,屏東縣高樹鄉南興路110號,22.823331,120.601744
屏東縣,鹽埔鄉,鹽埔,屏東縣鹽埔鄉維新路109-2號,22.740442,120.556659
彰化縣,二林鎮,二林,彰化縣二林鎮中山路110號,23.89997,120.367602
彰化縣,北斗鎮,北斗,彰化縣北斗鎮中華路261號,23.872931,120.522118
彰化縣,和美鎮,和美,彰化縣和美鎮中山路163號,24.112232,120.498072
彰化縣,員林市,員二,彰化縣員林市民權街6號,23.95953,120.571589
彰化縣,員林市,員中,彰化縣員林市中正路197號,23.953576,120.574843
彰化縣,員林市,靜修,彰化縣員林市靜修路52-19號,23.96228,120.564879
彰化縣,彰化市,彰化,彰化縣彰化市和平路15號,24.079019,120.540197
彰化縣,彰化市,彰化三,彰化縣彰化市三民路265號,24.085956,120.543762
彰化縣,彰化市,旭光,彰化縣彰化市旭光路255號,24.070888,120.545007
彰化縣,彰化市,彰南,彰化縣彰化市彰南路一段417號,24.085864,120.576162
彰化縣,彰化市,彰民,彰化縣彰化市民族路273號,24.072109,120.537086
彰化縣,彰化市,大埔,彰化縣彰化市大埔路592號,24.066573,120.540609
彰化縣,永靖鄉,永靖,彰化縣永靖鄉瑚璉路187號,23.925175,120.549356
彰化縣,溪湖鎮,溪湖,彰化縣溪湖鎮彰水路三段298號,23.960191,120.480302
彰化縣,田中鎮,田中,彰化縣田中鎮中州路一段190號,23.857993,120.586804
彰化縣,社頭鄉,社頭,彰化縣社頭鄉社斗路一段205號,23.897474,120.587928
彰化縣,花壇鄉,花壇,彰化縣花壇鄉中正路176號,24.026898,120.542914
彰化縣,鹿港鎮,鹿港,彰化縣鹿港鎮民族路99號,24.055346,120.436128
新北市,三峽區,三峽,新北市三峽區民生街119-2號,24.935204,121.373633
新北市,三峽區,學勤,新北市三峽區大學路150-2號,24.941681,121.376143
新北市,三芝區,三芝,新北市三芝區育英街1號,25.258104,121.50138
新北市,三重區,三重,新北市三重區重新路二段78號,25.061916,121.497226
新北市,三重區,五華,新北市三重區五華街59號,25.082552,121.492776
新北市,三重區,正義,新北市三重區正義北路179號,25.067608,121.496466
新北市,三重區,力行,新北市三重區忠孝路二段107號,25.069688,121.483785
新北市,三重區,三和,新北市三重區三和路四段155巷2號,25.078509,121.483619
新北市,三重區,中央,新北市三重區中央北路134號,25.068116,121.499706
新北市,三重區,三華,新北市三重區中華路99號,25.063155,121.483676
新北市,三重區,集美,新北市三重區集美街103號,25.052984,121.489191
新北市,三重區,三和2,新北市三重區三和路四段420號,25.079853,121.480625
新北市,三重區,溪尾,新北市三重區溪尾街185號,25.080568,121.488776
新北市,三重區,中正北,新北市三重區中正北路189號,25.069636,121.477371
新北市,中和區,中和,新北市中和區興南路一段47號,24.990347,121.510874
新北市,中和區,漢生,新北市中和區中山路三段191號,25.006226,121.472411
新北市,中和區,中連,新北市中和區中和路1號,25.002351,121.499677
新北市,中和區,華新,新北市中和區華新街95號,24.983056,121.508763
新北市,中和區,員山,新北市中和區員山路198號,25.00054,121.481336
新北市,中和區,南勢角,新北市中和區景新街420號,24.988889,121.512799
新北市,中和區,莒光2,新北市中和區莒光路127號,25.001995,121.472582
新北市,中和區,連城,新北市中和區連城路351號,24.996129,121.487972
新北市,中和區,景安,新北市中和區景平路353號,24.99331,121.504791
新北市,中和區,宜安,新北市中和區宜安路148號,24.998579,121.509422
新北市,五股區,五股,新北市五股區工商路80號,25.085102,121.438253
新北市,八里區,八里,新北市八里區中山路二段399號,25.146687,121.398002
新北市,土城區,土城,新北市土城區學府路一段109號,24.987494,121.455758
新北市,土城區,金城,新北市土城區金城路三段1號,24.986231,121.464321
新北市,土城區,土城2,新北市土城區中央路二段169號,24.976131,121.442153
新北市,土城區,裕民,新北市土城區裕民路52號,24.98806,121.448405
新北市,土城區,延和,新北市土城區延和路170號,24.990243,121.468612
新北市,新莊區,新莊,新北市新莊區新泰路132號,25.036917,121.447979
新北市,新莊區,民安,新北市新莊區民安路188巷6號,25.023437,121.425023
新北市,新莊區,幸福,新北市新莊區幸福路700號,25.049436,121.449961
新北市,新莊區,中港,新北市新莊區中港路297號,25.044334,121.452766
新北市,新莊區,新福,新北市新莊區幸福路524號,25.049461,121.456043
新北市,新莊區,輔仁,新北市新莊區中正路516-2號,25.032501,121.433416
新北市,新莊區,富國,新北市新莊區富國路26號,25.026267,121.418674
新北市,新莊區,五權,新北市新莊區五權一路48號,25.065724,121.457872
新北市,新莊區,中平,新北市新莊區中平路87巷1號,25.045692,121.444562
新北市,新莊區,新泰二,新北市新莊區新泰路55號,25.033956,121.449209
新北市,新莊區,民安西,新北市新莊區民安西路228號,25.01441,121.42579
新北市,新莊區,新和,新北市新莊區中和街2號,25.042902,121.448619
新北市,板橋區,埔墘,新北市板橋區中山路二段188號,25.017444,121.477502
新北市,板橋區,四維,新北市板橋區四維路257號,25.027982,121.46339
新北市,板橋區,陽明,新北市板橋區文化路一段280號,25.021329,121.467269
新北市,板橋區,板七,新北市板橋區中正路222號,25.018483,121.455936
新北市,板橋區,板中,新北市板橋區中山路一段19號,25.008246,121.460043
新北市,板橋區,新海,新北市板橋區新海路150號,25.023836,121.46065
新北市,板橋區,四川,新北市板橋區忠孝路25號,25.002078,121.460521
新北市,板橋區,莒光,新北市板橋區莒光路33號,25.024542,121.470339
新北市,板橋區,南雅,新北市板橋區南雅南路一段27號,25.006647,121.45635
新北市,板橋區,雙十,新北市板橋區雙十路二段213號,25.028868,121.47307
新北市,板橋區,板金,新北市板橋區金門街286號,24.985993,121.429326
新北市,板橋區,民治,新北市板橋區民治街123號,25.030844,121.478186
新北市,板橋區,長壽,新北市板橋區三民路二段97號,25.016267,121.479384
新北市,板橋區,亞東,新北市板橋區四川路二段51號,24.9951,121.453875
新北市,板橋區,板文,新北市板橋區文化路一段411號,25.02241,121.467242
新北市,板橋區,國慶,新北市板橋區國慶路183號,24.996456,121.462848
新北市,林口區,林口,新北市林口區中正路103號,25.077206,121.394067
新北市,林口區,林口二,新北市林口區文化二路一段152號,25.071485,121.368449
新北市,林口區,林口三,新北市林口區仁愛路二段247號,25.076356,121.372864
新北市,樹林區,樹二,新北市樹林區博愛一街9號,24.991138,121.425401
新北市,樹林區,樹林3,新北市樹林區中華路267號,24.980387,121.417871
新北市,樹林區,新樹林,新北市樹林區中山路一段116號,24.990662,121.422813
新北市,樹林區,北大二,新北市樹林區大雅路279號,24.946805,121.379733
新北市,永和區,永和,新北市永和區永和路二段209號,25.013838,121.515319
新北市,永和區,竹林,新北市永和區竹林路231號,25.008379,121.520961
新北市,永和區,得和,新北市永和區得和路399號,24.999276,121.525559
新北市,永和區,樂華,新北市永和區永和路一段164號,25.008673,121.514255
新北市,永和區,永安,新北市永和區中和路515號,25.00258,121.510858
新北市,永和區,秀山,新北市永和區民權路53號,24.996879,121.519986
新北市,永和區,中興,新北市永和區中興街91號,25.01201,121.517568
新北市,永和區,中山,新北市永和區中山路一段212號,25.008517,121.508421
新北市,永和區,新智光,新北市永和區中正路101號,24.997439,121.515531
新北市,汐止區,汐止,新北市汐止區中興路168號,25.065527,121.631885
新北市,汐止區,汐止2,新北市汐止區忠孝東路267號,25.0681,121.663397
新北市,汐止區,新台五,新北市汐止區新台五路一段161號,25.06274,121.65415
新北市,汐止區,建成,新北市汐止區建成路48號,25.073132,121.66286
新北市,汐止區,汐福,新北市汐止區福德一路89號,25.068452,121.638057
新北市,汐止區,汐科,新北市汐止區新台五路一段93號(iFG遠雄購物中心B1),25.060944,121.646699
新北市,泰山區,泰山,新北市泰山區明志路三段184號,25.040705,121.425122
新北市,泰山區,泰林,新北市泰山區泰林路二段185號,25.06335,121.429309
新北市,泰山區,泰仁,新北市泰山區仁愛路83號,25.055678,121.433617
新北市,淡水區,淡水,新北市淡水區英專路46號,25.170475,121.445691
新北市,淡水區,竹圍,新北市淡水區民族路10號,25.136738,121.460721
新北市,淡水區,淡海,新北市淡水區中山北路一段48號,25.175452,121.441883
新北市,淡水區,淡江,新北市淡水區北新路182巷5號,25.178128,121.449322
新北市,深坑區,深坑,新北市深坑區北深路三段177號,25.004381,121.599555
新北市,瑞芳區,瑞芳,新北市瑞芳區明燈路三段62號,25.10807,121.806725
新北市,蘆洲區,蘆洲,新北市蘆洲區長安街138號,25.082098,121.46021
新北市,蘆洲區,得勝,新北市蘆洲區得勝街157號,25.082975,121.471518
新北市,蘆洲區,光華,新北市蘆洲區光華路38號,25.083268,121.469036
新北市,蘆洲區,溪漧,新北市蘆洲區三民路75號,25.083906,121.474875
新北市,蘆洲區,長榮,新北市蘆洲區長榮路25號,25.082468,121.463185
新北市,蘆洲區,民族,新北市蘆洲區民族路59號,25.085731,121.478885
新北市,蘆洲區,鷺江,新北市蘆洲區復興路132號,25.087484,121.476767
新北市,金山區,金山,新北市金山區中山路228號,25.222209,121.637056
新北市,鶯歌區,鶯歌,新北市鶯歌區建國路158號,24.953712,121.350687
新竹縣,新埔鎮,新新埔,新竹縣新埔鎮中正路217號,24.827484,121.080478
新竹縣,新豐鄉,新豐,新竹縣新豐鄉建興路一段19號,24.870552,120.995966
新竹縣,湖口鄉,湖口,新竹縣湖口鄉中正路一段19號,24.902657,121.044784
新竹縣,湖口鄉,湖中,新竹縣湖口鄉中華路108號,24.874456,121.011632
新竹縣,竹北市,竹燦,新竹縣竹北市三民路423號,24.834695,121.008937
新竹縣,竹北市,中正西,新竹縣竹北市中正西路19號,24.839896,121.002554
新竹縣,竹北市,竹勝,新竹縣竹北市勝利二路38號,24.822606,121.02706
新竹縣,竹北市,新竹北,新竹縣竹北市博愛街359號,24.836498,121.008459
新竹縣,竹北市,縣政,新竹縣竹北市光明六路89號,24.826955,121.009502
新竹縣,竹東鎮,竹東,新竹縣竹東鎮東寧路三段103號,24.73902,121.086231
新竹縣,關西鎮,關西,新竹縣關西鎮中興路14號,24.792415,121.17701
桃園市,中壢區,中原,桃園市中壢區日新路82號,24.954983,121.239989
桃園市,中壢區,中三,桃園市中壢區新生路40號,24.958081,121.222596
桃園市,中壢區,來來,桃園市中壢區中山路118號,24.955318,121.22569
桃園市,中壢區,內壢,桃園市中壢區中華路一段209號,24.970955,121.253818
桃園市,中壢區,中原2,桃園市中壢區中山東路二段26號,24.954271,121.237276
桃園市,中壢區,壢運,桃園市中壢區中正路99號,24.954833,121.222989
桃園市,中壢區,海華,桃園市中壢區慈惠三街156號,24.964886,121.225841
桃園市,中壢區,龍岡,桃園市中壢區龍東路219號,24.93037,121.25352
桃園市,中壢區,環東,桃園市中壢區環中東路216號,24.964908,121.258562
桃園市,中壢區,壢春,桃園市中壢區長春路1號,24.979168,121.250518
桃園市,中壢區,健行,桃園市中壢區健行路200號,24.947809,121.227508
桃園市,中壢區,福州,桃園市中壢區福州一街250號,24.967399,121.23308
桃園市,中壢區,新明,桃園市中壢區新明路41號,24.959151,121.214969
桃園市,中壢區,壢新,桃園市中壢區新生路182號,24.96114,121.223106
桃園市,中壢區,大江,桃園市中壢區中園路二段509號B1F,25.001673,121.229018
桃園市,中壢區,龍昌,桃園市中壢區龍昌路180巷2號,24.937451,121.249588
桃園市,八德區,八德,桃園市八德區介壽路一段950號,24.958566,121.299394
桃園市,八德區,桃鶯,桃園市八德區桃鶯路53號,24.971031,121.327285
桃園市,八德區,義勇,桃園市八德區義勇街140號,24.963421,121.305417
桃園市,八德區,介壽,桃園市八德區介壽路二段1068號,24.931875,121.297126
桃園市,大園區,大園,桃園市大園區中正東路12號,25.06396,121.198083
桃園市,大溪區,崎頂,桃園市大溪區介壽路848號,24.900827,121.283692
桃園市,大溪區,新大溪,桃園市大溪區慈湖路89號,24.882095,121.286873
桃園市,平鎮區,平鎮,桃園市平鎮區南豐路28-3號,24.900337,121.210112
桃園市,平鎮區,平鎮二,桃園市平鎮區文化街82號,24.954221,121.202965
桃園市,平鎮區,平和,桃園市平鎮區和平路172號,24.946637,121.219926
桃園市,新屋區,新屋,桃園市新屋區中山路235號,24.972558,121.106773
桃園市,桃園區,中正,桃園市桃園區中正路54號,24.99112,121.312852
桃園市,桃園區,桃園,桃園市桃園區中正路146號,24.994041,121.311592
桃園市,桃園區,縣府,桃園市桃園區縣府路314號,24.99258,121.300166
桃園市,桃園區,北埔,桃園市桃園區中正路513號,25.002721,121.305803
桃園市,桃園區,南門,桃園市桃園區南華街107號,24.991616,121.307677
桃園市,桃園區,桃鶯2,桃園市桃園區桃鶯路253號,24.983839,121.318713
桃園市,桃園區,寶山,桃園市桃園區寶山街273號,25.011319,121.313728
桃園市,桃園區,藝文,桃園市桃園區中正路1228號,25.018829,121.297462
桃園市,桃園區,中山東,桃園市桃園區中山東路32-4號,24.995832,121.314764
桃園市,桃園區,新大有,桃園市桃園區大有路511號,25.014229,121.317497
桃園市,桃園區,桃中,桃園市桃園區中平路84號,24.988346,121.292582
桃園市,桃園區,大興西,桃園市桃園區大興西路二段39號,25.011471,121.299324
桃園市,桃園區,新龍安,桃園市桃園區龍安街140號,24.990776,121.279734
桃園市,桃園區,大興,桃園市桃園區大興路175號,25.015646,121.309165
桃園市,桃園區,新藝文,桃園市桃園區南平路332號,25.018277,121.296101
桃園市,楊梅區,楊梅,桃園市楊梅區大成路109號,24.910832,121.145685
桃園市,楊梅區,埔心,桃園市楊梅區中興路34號,24.918456,121.184217
桃園市,蘆竹區,南崁,桃園市蘆竹區南崁路200號,25.048281,121.294018
桃園市,蘆竹區,南竹,桃園市蘆竹區南竹路一段60號,25.047265,121.291784
桃園市,蘆竹區,蘆中,桃園市蘆竹區中山路59號,25.052372,121.300412
桃園市,蘆竹區,奉化,桃園市蘆竹區奉化路75號,25.037001,121.292406
桃園市,蘆竹區,新台茂,桃園市蘆竹區南崁路一段112號,25.053046,121.287707
桃園市,蘆竹區,大竹,桃園市蘆竹區大竹路515號,25.023359,121.26
桃園市,蘆竹區,南昌,桃園市蘆竹區南昌路242號,25.040384,121.288697
桃園市,觀音區,觀音,桃園市觀音區大觀路二段163號,25.045925,121.141277
桃園市,龍潭區,龍潭,桃園市龍潭區中正路110號,24.867241,121.215966
桃園市,龍潭區,龍興,桃園市龍潭區中興路279號,24.874037,121.234147
桃園市,龜山區,龜山,桃園市龜山區中興路431-2號,24.993383,121.336553
桃園市,龜山區,長庚,桃園市龜山區復興一路80號,25.057086,121.363794
桃園市,龜山區,龍華,桃園市龜山區萬壽路一段298號,25.017411,121.402895
桃園市,龜山區,長庚大,桃園市龜山區文化一路259號,25.035294,121.389521
澎湖縣,馬公市,澎湖,澎湖縣馬公市中正路26號,23.564864,119.565416
澎湖縣,馬公市,北辰,澎湖縣馬公市中華路59-2號,23.570075,119.570968
花蓮縣,吉安鄉,吉安,花蓮縣吉安鄉中華路二段340號,23.973497,121.579327
花蓮縣,玉里鎮,玉里,花蓮縣玉里鎮中山路一段209號,23.33138,121.315607
花蓮縣,花蓮市,花蓮,花蓮縣花蓮市中山路209號,23.977575,121.608835
花蓮縣,花蓮市,花中,花蓮縣花蓮市中山路551號,23.98729,121.601189
花蓮縣,花蓮市,美琪,花蓮縣花蓮市中正路388號,23.974591,121.60357
花蓮縣,花蓮市,花中二,花蓮縣花蓮市中正路541號,23.977167,121.607027
苗栗縣,公館鄉,公館,苗栗縣公館鄉大同路154號,24.501999,120.828296
苗栗縣,卓蘭鎮,卓蘭,苗栗縣卓蘭鎮中正路101號,24.311812,120.825055
苗栗縣,後龍鎮,後龍,苗栗縣後龍鎮中北街70-3號,24.615498,120.788049
苗栗縣,竹南鎮,竹南,苗栗縣竹南鎮博愛街73號,24.686568,120.876849
苗栗縣,苑裡鎮,新苑裡,苗栗縣苑裡鎮中山路123號,24.441674,120.650842
苗栗縣,苗栗市,苗栗,苗栗縣苗栗市光復路45巷1號,24.55298,120.816459
苗栗縣,苗栗市,苗農,苗栗縣苗栗市中正路336號,24.562473,120.82322
苗栗縣,通霄鎮,通霄,苗栗縣通霄鎮中正路82號,24.490824,120.679408
苗栗縣,銅鑼鄉,銅鑼,苗栗縣銅鑼鄉中正路120號,24.487137,120.785054
苗栗縣,頭份市,頭份,苗栗縣頭份市中正路159號,24.686817,120.910064
金門縣,金城鎮,金門,金門縣金城鎮民生路35-2號,24.435064,118.319327
金門縣,金湖鎮,金門2,金門縣金湖鎮中正路90號,24.44157,118.414553
雲林縣,北港鎮,北港,雲林縣北港鎮民主路98號,23.568697,120.301682
雲林縣,斗六市,斗六,雲林縣斗六市民生路156號,23.711507,120.541693
雲林縣,斗六市,雲科,雲林縣斗六市中山路300-1號,23.701404,120.538204
雲林縣,斗六市,鎮北,雲林縣斗六市鎮北路115號,23.714739,120.540662
雲林縣,斗南鎮,斗南,雲林縣斗南鎮中山路70號,23.675092,120.479567
雲林縣,莿桐鄉,莿桐,雲林縣莿桐鄉中山路80號,23.756747,120.497763
雲林縣,虎尾鎮,虎尾,雲林縣虎尾鎮中正路141號,23.708026,120.43321
雲林縣,虎尾鎮,虎尾二,雲林縣虎尾鎮中正路340號,23.703849,120.42903
雲林縣,西螺鎮,西螺,雲林縣西螺鎮中山路167號,23.799734,120.459646
雲林縣,麥寮鄉,麥寮,雲林縣麥寮鄉中興路42號,23.751176,120.251654
高雄市,三民區,澄和,高雄市三民區澄和路129號,22.644766,120.343057
高雄市,三民區,建興,高雄市三民區建興路224號,22.644716,120.324914
高雄市,三民區,天祥,高雄市三民區天祥一路171號,22.667473,120.318969
高雄市,三民區,察哈爾,高雄市三民區博愛一路225號,22.647732,120.302911
高雄市,三民區,河北,高雄市三民區河北二路110號,22.636315,120.297179
高雄市,三民區,高明,高雄市三民區陽明路172號,22.63757,120.34093
高雄市,三民區,明哲,高雄市三民區明哲路1號,22.661111,120.313865
高雄市,三民區,大昌,高雄市三民區大昌二路114號,22.643654,120.332237
高雄市,三民區,灣中,高雄市三民區灣中街341號,22.649891,120.317122
高雄市,三民區,鼎力,高雄市三民區鼎力路27號,22.662595,120.319427
高雄市,三民區,新坎城,高雄市三民區自由一路105號,22.643752,120.306379
高雄市,三民區,新建工,高雄市三民區建工路432號,22.651891,120.32581
高雄市,仁武區,仁武,高雄市仁武區仁武村中正路190-1號,22.702247,120.351798
高雄市,仁武區,仁忠,高雄市仁武區仁忠路202號,22.679917,120.354483
高雄市,前鎮區,一心,高雄市前鎮區一心二路45號,22.611205,120.310446
高雄市,前鎮區,瑞隆,高雄市前鎮區瑞隆路436號,22.605539,120.329562
高雄市,前鎮區,文橫,高雄市前鎮區文橫三路190號,22.614215,120.307261
高雄市,前鎮區,草衙,高雄市前鎮區草衙二路393號,22.578519,120.322406
高雄市,前鎮區,新光前,高雄市前鎮區中安路1-1號3樓,22.581317,120.329122
高雄市,前鎮區,瑞北,高雄市前鎮區瑞北路52號,22.609351,120.334287
高雄市,大寮區,大寮,高雄市大寮區鳳林三路330號,22.602046,120.39755
高雄市,大寮區,後庄,高雄市大寮區鳳屏一路281號,22.636174,120.392019
高雄市,大樹區,義大,高雄市大樹區學城路一段12號,22.729421,120.406153
高雄市,大社區,大社,高雄市大社區中山路365號,22.73155,120.351168
高雄市,小港區,小港,高雄市小港區漢民路283號,22.567024,120.353649
高雄市,小港區,宏平,高雄市小港區宏平路130號,22.571125,120.363044
高雄市,岡山區,岡山,高雄市岡山區壽天路111號,22.79457,120.291117
高雄市,左營區,左營,高雄市左營區左營大路290號,22.686066,120.291139
高雄市,左營區,右昌,高雄市左營區後昌路651號,22.708223,120.298168
高雄市,左營區,裕誠,高雄市左營區裕誠路413號,22.665341,120.306815
高雄市,左營區,崇高,高雄市左營區崇德路385號,22.676534,120.302281
高雄市,左營區,自由3,高雄市左營區自由三路210號,22.672137,120.311427
高雄市,新興區,六合,高雄市新興區六合一路94號,22.632677,120.307851
高雄市,新興區,六合發,高雄市新興區六合二路14號,22.632917,120.301294
高雄市,新興區,南華,高雄市新興區林森一路166號,22.63042,120.304739
高雄市,新興區,新崛江,高雄市新興區文橫二路149-1號,22.622896,120.303569
高雄市,旗山區,旗山,高雄市旗山區延平一路617號,22.885446,120.483173
高雄市,旗津區,旗津,高雄市旗津區通山路18號,22.613036,120.268846
高雄市,林園區,林園,高雄市林園區東林西路29號,22.503705,120.395197
高雄市,楠梓區,楠梓,高雄市楠梓區建楠路156號,22.72711,120.326698
高雄市,楠梓區,楠梓二,高雄市楠梓區後昌路123號,22.718468,120.310631
高雄市,楠梓區,德賢,高雄市楠梓區德賢路193號,22.726393,120.305974
高雄市,楠梓區,德民,高雄市楠梓區德民路977號,22.720197,120.288257
高雄市,楠梓區,右昌2,高雄市楠梓區右昌街146號,22.71051,120.290075
高雄市,橋頭區,橋頭,高雄市橋頭區隆豐路201號,22.753939,120.307304
高雄市,美濃區,美濃,高雄市美濃區中正路一段42號,22.900541,120.541598
高雄市,苓雅區,廣州,高雄市苓雅區廣州一街141-3號,22.624004,120.317028
高雄市,苓雅區,建國,高雄市苓雅區正義路136號,22.630932,120.339439
高雄市,苓雅區,武廟,高雄市苓雅區福德二路20之1號,22.630676,120.328047
高雄市,苓雅區,興中,高雄市苓雅區興中一路377號,22.616242,120.306497
高雄市,苓雅區,漢神,高雄市苓雅區成功一路239-6號,22.618652,120.295746
高雄市,路竹區,路竹,高雄市路竹區大社路21號,22.862575,120.261575
高雄市,阿蓮區,新阿蓮,高雄市阿蓮區中山路73號,22.879475,120.328704
高雄市,鳳山區,鳳山,高雄市鳳山區中山路120-1號,22.623166,120.357819
高雄市,鳳山區,五甲,高雄市鳳山區五甲二路690號,22.594812,120.330255
高雄市,鳳山區,青年,高雄市鳳山區青年路二段389號,22.642646,120.351484
高雄市,鳳山區,鳳松,高雄市鳳山區經武路229號,22.636795,120.364018
高雄市,鹽埕區,華王,高雄市鹽埕區五福四路55號,22.62167,120.287184
高雄市,鼓山區,瑞豐,高雄市鼓山區裕誠路1087號,22.665703,120.299647
高雄市,鼓山區,內惟,高雄市鼓山區九如四路1476號,22.66008,120.28032
